City_ID,City,Lat,Lng,Max Temp,Humidity,Cloudiness,Wind Speed,Country,Date
0,imbituba,-28.24,-48.6703,23.28,94,100,4.68,BR,1697574269
1,verkhniye sergi,56.6469,59.5556,8.69,66,98,6.03,RU,1697574269
2,waitangi,-43.9535,-176.5597,11.57,76,0,1.79,NZ,1697574270
3,adamstown,-25.066,-130.1015,22.15,87,100,4.16,PN,1697574270
4,puerto natales,-51.7236,-72.4875,12.25,54,75,9.26,CL,1697574270
5,olonkinbyen,70.9221,-8.7187,0.08,77,100,2.35,SJ,1697574270
6,richards bay,-28.783,32.0377,18.47,87,96,3.57,ZA,1697574270
7,lazaro cardenas,17.9583,-102.2,27.52,83,99,1.96,MX,1697574265
8,grytviken,-54.2811,-36.5092,1.63,80,63,5.16,GS,1697574271
9,albany,42.6001,-73.9662,14.8,67,95,2.21,US,1697573783
10,sorong,-0.8833,131.25,26.18,82,93,1.52,ID,1697574271
11,anadyr,64.75,177.4833,-6.72,85,20,4.0,RU,1697574272
12,whitehorse,60.7161,-135.0538,9.43,78,75,5.66,CA,1697574272
13,ormara,25.2088,64.6357,26.47,81,1,2.48,PK,1697574272
14,port-aux-francais,-49.35,70.2167,2.15,74,95,8.14,TF,1697574272
15,katsuura,35.1333,140.3,18.22,75,29,2.49,JP,1697574272
16,thunder bay,48.4001,-89.3168,11.99,66,40,5.14,CA,1697574020
17,swift current,50.2834,-107.8014,15.45,58,20,12.86,CA,1697574061
18,tosontsengel,48.7567,98.2839,-1.73,41,100,2.65,MN,1697574273
19,qaqortoq,60.7167,-46.0333,-0.22,60,7,5.41,GL,1697574273
20,thompson,55.7435,-97.8558,15.09,58,40,2.06,CA,1697574273
21,karasburg,-28.0167,18.75,23.1,17,0,4.3,NA,1697574274
22,campbellton,48.0075,-66.6727,10.25,76,100,0.19,CA,1697574274
23,bethel,41.3712,-73.414,17.05,64,75,2.57,US,1697574274
24,isafjordur,66.0755,-23.124,5.63,92,94,5.76,IS,1697574274
25,lebu,-37.6167,-73.65,14.56,66,0,5.61,CL,1697574274
26,petropavlovsk-kamchatsky,53.0452,158.6483,6.36,88,75,2.24,RU,1697574275
27,hermanus,-34.4187,19.2345,16.76,86,0,2.29,ZA,1697574275
28,dudinka,69.4058,86.1778,-0.18,98,100,2.68,RU,1697574275
29,invercargill,-46.4,168.35,8.34,77,100,2.24,NZ,1697574275
30,avarua,-21.2078,-159.775,24.03,69,20,6.17,CK,1697574275
31,georgetown,5.4112,100.3354,26.12,92,20,2.68,MY,1697574148
32,yellowknife,62.456,-114.3525,1.29,100,100,1.54,CA,1697574276
33,nizhnyaya tavda,57.6731,66.1725,10.3,68,0,5.57,RU,1697574276
34,xai-xai,-25.0519,33.6442,19.77,83,52,3.72,MZ,1697574276
35,midland,31.9974,-102.0779,28.78,23,0,6.17,US,1697574200
36,ocotlan de morelos,16.8,-96.6667,23.03,54,94,2.02,MX,1697574277
37,minas de marcona,-15.2119,-75.1103,18.86,67,39,5.05,PE,1697574277
38,ovalle,-30.5983,-71.2003,24.1,30,100,4.52,CL,1697574278
39,ilulissat,69.2167,-51.1,-15.99,72,20,2.06,GL,1697574278
40,tiksi,71.6872,128.8694,-15.86,100,100,0.84,RU,1697574278
41,princeville,45.7668,-61.2985,9.06,95,100,3.58,CA,1697574278
42,pahrump,36.2083,-115.9839,30.7,12,42,0.45,US,1697573984
43,enewetak,11.3474,162.3373,28.61,76,99,6.99,MH,1697574279
44,lompoc,34.6391,-120.4579,33.34,66,0,6.26,US,1697574221
45,blackmans bay,-43.0167,147.3167,7.51,86,42,0.45,AU,1697574279
46,coquimbo,-29.9533,-71.3436,16.85,67,0,5.14,CL,1697574279
47,zakamensk,50.3741,103.2863,1.7,63,100,2.32,RU,1697574279
48,bilibino,68.0546,166.4372,-15.02,100,100,1.02,RU,1697574280
49,kruisfontein,-34.0033,24.7314,15.53,86,0,1.49,ZA,1697574280
50,tokar,18.4254,37.729,29.28,70,98,3.32,SD,1697574280
51,happy valley-goose bay,53.3168,-60.3315,6.17,61,75,3.09,CA,1697574280
52,egilsstadir,65.2653,-14.3948,5.95,70,75,3.09,IS,1697574280
53,edinburgh of the seven seas,-37.0676,-12.3116,12.64,74,100,4.89,SH,1697574281
54,papao,-17.75,-149.55,26.82,81,86,7.78,PF,1697574281
55,stanley,54.868,-1.6985,8.17,95,20,2.57,GB,1697574281
56,papatowai,-46.5619,169.4708,9.15,59,97,6.03,NZ,1697574281
57,luuq,3.7938,42.5445,31.38,49,100,7.82,SO,1697574281
58,port alfred,-33.5906,26.891,17.32,88,0,1.34,ZA,1697574282
59,mirny,62.5353,113.9611,-0.98,100,97,1.79,RU,1697574282
60,luderitz,-26.6481,15.1594,20.02,60,1,3.87,NA,1697574282
61,praia da vitoria,38.7333,-27.0667,21.14,78,20,3.99,PT,1697574283
62,langepas,61.2544,75.2124,7.3,96,58,3.85,RU,1697574283
63,west island,-12.1568,96.8225,25.99,83,40,8.23,CC,1697574283
64,colonia,50.9333,6.95,9.36,75,0,3.09,DE,1697574223
65,kodiak,57.79,-152.4072,8.73,87,100,5.14,US,1697574284
66,lerwick,60.1545,-1.1494,6.0,83,100,2.7,GB,1697574284
67,charters towers,-20.1,146.2667,18.61,91,19,4.34,AU,1697574284
68,remire-montjoly,4.9167,-52.2667,27.02,74,75,1.03,GF,1697574284
69,college,64.8569,-147.8028,1.97,83,75,1.54,US,1697574285
70,nuku'alofa,-21.1333,-175.2,24.19,73,20,9.26,TO,1697574285
71,cabo san lucas,22.8909,-109.9124,34.78,58,20,2.57,MX,1697573429
72,caburan,5.9181,125.6411,26.22,82,14,2.24,PH,1697574286
73,usinsk,65.9939,57.5281,2.26,99,100,7.15,RU,1697574286
74,aitape,-3.1374,142.3475,25.05,88,73,1.07,PG,1697574287
75,altay,47.8667,88.1167,3.88,40,8,2.03,CN,1697574287
76,grand falls-windsor,48.9332,-55.6649,5.28,84,100,2.01,CA,1697574287
77,hithadhoo,-0.6,73.0833,27.36,75,9,6.17,MV,1697574287
78,longyearbyen,78.2186,15.6401,-4.09,58,0,4.63,SJ,1697574057
79,ixtapa,20.7,-105.2,32.35,58,75,4.12,MX,1697574130
80,berezovyy,51.6667,135.7,1.53,97,100,1.33,RU,1697574288
81,port augusta,-32.5,137.7667,12.34,38,0,2.22,AU,1697574288
82,severo-yeniseyskiy,60.3725,93.0408,-3.01,98,100,1.34,RU,1697574288
83,la cocha,-27.7773,-65.5704,17.03,78,95,3.81,AR,1697574289
84,margaret river,-33.95,115.0667,14.72,79,100,4.16,AU,1697574289
85,san patricio,28.017,-97.5169,25.92,28,0,0.44,US,1697574289
86,nishon tumani,38.694,65.6751,18.14,59,40,3.09,UZ,1697574289
87,fortuna,40.5982,-124.1573,18.29,68,100,2.06,US,1697573908
88,iskateley,67.6803,53.1512,1.12,89,100,4.02,RU,1697574290
89,lucas,41.6501,-83.6666,14.08,57,100,4.12,US,1697574062
90,iqaluit,63.7506,-68.5145,-1.15,58,100,2.06,CA,1697574210
91,alice springs,-23.7,133.8833,8.75,40,0,0.0,AU,1697574290
92,saipan,15.1355,145.701,28.39,89,40,5.14,MP,1697574291
93,talnakh,69.4865,88.3972,-0.44,96,100,4.47,RU,1697574291
94,badger,64.8,-147.5333,1.93,83,75,1.54,US,1697574291
95,afaahiti,-17.75,-149.2833,25.93,84,84,7.39,PF,1697574291
96,nueva guinea,11.6876,-84.4562,26.25,88,100,4.77,NI,1697574292
97,weno,7.4515,151.8468,26.97,94,75,1.54,FM,1697574292
98,alofi,-19.0595,-169.9187,23.94,64,75,9.77,NU,1697574292
99,huarmey,-10.0681,-78.1522,22.95,73,52,5.04,PE,1697574292
100,hamilton,39.1834,-84.5333,14.35,60,100,3.6,US,1697573996
101,aasiaat,68.7098,-52.8699,-16.5,86,28,2.78,GL,1697574293
102,tual,-5.6667,132.75,26.89,81,58,7.3,ID,1697574293
103,plaza huincul,-38.926,-69.2086,22.3,10,0,1.79,AR,1697574293
104,punta arenas,-53.15,-70.9167,10.06,66,75,10.8,CL,1697574293
105,freetown,8.484,-13.2299,25.84,89,75,4.63,SL,1697574293
106,rizokarpaso,35.6,34.375,23.47,65,0,3.6,CY,1697574294
107,nizhneudinsk,54.9076,99.0276,3.9,96,100,2.68,RU,1697574294
108,gaspe,48.8334,-64.4819,8.12,53,75,3.09,CA,1697574294
109,hawaiian paradise park,19.5933,-154.9731,27.73,77,75,2.57,US,1697574294
110,atafu village,-8.5421,-172.5159,28.4,74,99,4.3,TK,1697574294
111,tobelo,1.7284,128.0095,26.99,82,27,2.07,ID,1697574295
112,kerema,-7.9631,145.7785,24.33,92,100,1.99,PG,1697574295
113,kolonia,50.9333,6.95,9.36,75,0,3.09,DE,1697574295
114,kuhdasht,33.535,47.6061,14.94,46,0,0.18,IR,1697574295
115,mersa matruh,31.3525,27.2453,23.11,73,40,5.14,EG,1697574295
116,kulp,38.4972,41.0122,16.59,60,40,0.93,TR,1697574296
117,vila franca do campo,37.7167,-25.4333,21.05,99,83,5.12,PT,1697574296
118,aegina,37.7467,23.4275,20.95,72,90,5.03,GR,1697574296
119,avdiyivka,48.1399,37.7426,4.72,67,45,3.1,UA,1697574296
120,wake village,33.4268,-94.1063,21.28,43,0,2.57,US,1697574201
121,brownfield,33.1812,-102.2744,27.75,22,0,6.67,US,1697574297
122,caluula,11.9661,50.7569,28.37,71,0,4.86,SO,1697574297
123,taoudenni,22.6783,-3.9836,33.72,12,0,3.63,ML,1697574297
124,kerikeri,-35.2268,173.9474,18.28,93,100,1.79,NZ,1697574297
125,amungan,15.3652,119.9582,26.13,77,26,2.22,PH,1697574298
126,opuwo,-18.0607,13.84,23.66,20,5,3.53,NA,1697574043
127,ushuaia,-54.8,-68.3,12.81,55,0,5.66,AR,1697574298
128,bredasdorp,-34.5322,20.0403,16.0,84,0,1.12,ZA,1697574298
129,las heras,-46.5419,-68.9359,20.04,24,60,3.69,AR,1697574298
130,gemena,3.25,19.7667,22.16,93,40,1.35,CD,1697574299
131,tangalle,6.024,80.7911,24.98,86,100,1.62,LK,1697574299
132,gardnerville ranchos,38.8882,-119.7413,24.19,22,0,1.54,US,1697574299
133,puerto ayora,-0.7393,-90.3518,30.98,86,100,3.13,EC,1697574177
134,chonchi,-42.6128,-73.8092,16.56,48,37,2.84,CL,1697574299
135,lorengau,-2.0226,147.2712,26.78,78,66,1.4,PG,1697574300
136,onega,63.9061,38.1404,4.3,78,98,6.71,RU,1697574300
137,hadibu,12.65,54.0333,27.38,74,5,2.69,YE,1697574300
138,tazacorte,28.629,-17.9293,24.54,82,40,4.63,ES,1697574300
139,port elizabeth,-33.918,25.5701,17.16,93,0,3.6,ZA,1697574300
140,port mathurin,-19.6833,63.4167,23.95,82,3,3.65,MU,1697574301
141,brisas de zicatela,15.8369,-97.0419,31.29,51,40,2.57,MX,1697574301
142,alaghsas,17.0187,8.0168,32.14,14,90,5.81,NE,1697574301
143,richfield,44.8833,-93.283,19.16,48,40,3.09,US,1697574245
144,kholmsk,47.0511,142.0569,8.0,80,81,5.35,RU,1697574301
145,baise city,23.8997,106.6133,19.98,80,41,0.31,CN,1697574302
146,manakara,-22.1333,48.0167,23.43,92,100,2.74,MG,1697574302
147,agaro,7.85,36.65,15.83,95,100,1.0,ET,1697574302
148,kangaba,11.9333,-8.4167,24.29,67,79,0.5,ML,1697574302
149,nova sintra,14.8667,-24.7167,25.34,72,0,6.49,CV,1697574303
150,paoua,7.2427,16.4406,22.96,85,100,0.77,CF,1697574303
151,margate,51.3813,1.3862,13.28,68,100,4.02,GB,1697574303
152,winnemucca,40.973,-117.7357,22.03,23,0,0.0,US,1697574303
153,san jose del guaviare,2.5729,-72.6459,30.52,62,60,1.01,CO,1697574304
154,bethanie,-26.4833,17.15,23.96,16,0,2.72,NA,1697574304
155,kuta,-8.7233,115.1723,25.97,100,20,2.24,ID,1697574304
156,utrik,11.2278,169.8474,28.04,78,15,6.81,MH,1697574304
157,simplicio mendes,-7.8539,-41.9103,34.45,19,8,4.2,BR,1697574304
158,chegdomyn,51.1167,133.0167,2.4,72,100,0.89,RU,1697574305
159,uturoa,-16.7333,-151.4333,26.35,79,100,8.13,PF,1697574305
160,tazovsky,67.4667,78.7,3.59,96,100,5.38,RU,1697574305
161,constantia,44.1833,28.65,11.5,58,100,3.97,RO,1697574305
162,broome,42.2506,-75.833,14.38,76,100,3.6,US,1697574306
163,nanao,37.05,136.9667,11.21,79,22,1.01,JP,1697574306
164,souillac,-20.5167,57.5167,24.21,88,40,1.03,MU,1697574306
165,vilyuysk,63.7553,121.6247,-3.23,96,100,2.24,RU,1697574306
166,tolanaro,-25.0319,46.9987,23.04,78,75,7.2,MG,1697574307
167,jamestown,42.097,-79.2353,10.77,95,100,4.12,US,1697574036
168,walvis bay,-22.9575,14.5053,15.61,88,58,3.09,NA,1697574307
169,babruysk,53.15,29.2333,5.79,65,52,5.85,BY,1697574307
170,palangkaraya,-2.2,113.8333,24.92,91,85,1.02,ID,1697574308
171,saint-philippe,-21.3585,55.7679,24.77,84,99,3.06,RE,1697574308
172,concordia,-31.393,-58.0209,24.32,33,99,4.02,AR,1697574054
173,lihue,21.9789,-159.3672,27.98,62,0,1.54,US,1697574309
174,deschutes river woods,43.9915,-121.3584,19.06,42,0,2.06,US,1697574309
175,salmon arm,50.6998,-119.3024,15.8,51,80,1.03,CA,1697574105
176,sola,-13.8833,167.55,26.17,81,100,8.07,VU,1697574309
177,bintulu,3.1667,113.0333,26.23,88,20,1.03,MY,1697574310
178,nalut,30.3333,10.85,25.58,13,9,3.84,LY,1697574310
179,bandarbeyla,9.4942,50.8122,26.84,85,18,3.34,SO,1697574310
180,pitkyaranta,61.5734,31.4792,5.29,83,97,5.31,RU,1697574310
181,east london,-33.0153,27.9116,17.77,78,3,8.14,ZA,1697574186
182,yulinshi,38.2906,109.7494,10.39,81,93,1.93,CN,1697574311
183,sisimiut,66.9395,-53.6735,-6.75,85,82,3.13,GL,1697574311
184,saint-joseph,-21.3667,55.6167,24.21,86,100,1.78,RE,1697574311
185,tadine,-21.55,167.8833,22.24,90,100,6.19,NC,1697574311
186,ribeira grande,38.5167,-28.7,21.54,88,75,8.49,PT,1697574312
187,flying fish cove,-10.4217,105.6791,24.82,94,75,4.12,CX,1697574312
188,revda,56.801,59.9303,8.94,62,67,4.96,RU,1697574213
189,harper,4.375,-7.7169,25.21,88,19,2.1,LR,1697574312
190,wailua homesteads,22.0669,-159.378,27.64,63,0,1.54,US,1697574313
191,lubang,13.8584,120.124,28.12,79,30,9.75,PH,1697574313
192,chibougamau,49.9168,-74.3659,11.79,47,0,3.09,CA,1697574313
193,carbonia,39.1672,8.5222,22.53,75,100,2.78,IT,1697574313
194,zaragoza,41.6561,-0.8773,22.25,68,75,3.6,ES,1697574314
195,la passe,45.5549,-0.8967,22.21,69,96,9.86,FR,1697574314
196,orkney,-26.9802,26.6727,15.8,51,0,3.91,ZA,1697574314
197,sao joao da barra,-21.6403,-41.0511,28.05,86,45,7.86,BR,1697574314
198,polyarnyy,69.1989,33.4478,2.41,71,100,6.34,RU,1697574314
199,viedma,-40.8135,-62.9967,22.98,20,0,3.77,AR,1697574315
200,bechar,31.6167,-2.2167,25.18,15,0,1.54,DZ,1697574315
201,fale old settlement,-9.3852,-171.2468,27.85,77,85,4.26,TK,1697574315
202,mil'kovo,55.6078,37.7956,4.27,90,100,6.92,RU,1697574315
203,peniche,39.3558,-9.3811,19.6,95,96,10.0,PT,1697574316
204,tralee,52.2704,-9.7026,11.36,93,100,8.89,IE,1697574316
205,sungailiat,-1.85,106.1333,26.45,81,100,3.75,ID,1697574316
206,keflavik,64.0049,-22.5624,10.95,93,100,13.89,IS,1697574316
207,billings,45.7833,-108.5007,22.94,31,75,12.86,US,1697574300
208,steinbach,50.1667,8.5667,8.12,77,0,4.12,DE,1697574317
209,lamar,33.6668,-95.5836,24.43,39,0,1.54,US,1697574317
210,nabire,-3.3667,135.4833,24.19,90,88,1.38,ID,1697574317
211,ketchikan,55.3422,-131.6461,11.99,87,100,8.23,US,1697574317
212,newman,37.3138,-121.0208,27.19,47,2,3.13,US,1697574318
213,kourou,5.1552,-52.6478,27.03,67,14,4.45,GF,1697574318
214,guapore,-28.8456,-51.8903,17.62,99,100,0.4,BR,1697574318
215,udachny,66.4167,112.4,-9.19,93,89,5.47,RU,1697574259
216,collingwood,44.4834,-80.2164,16.5,77,1,3.11,CA,1697574212
217,namibe,-15.1961,12.1522,18.19,80,47,2.25,AO,1697574318
218,myrina,39.8797,25.0742,15.58,88,40,2.06,GR,1697574319
219,kato achaia,38.15,21.55,19.89,100,75,1.54,GR,1697574319
220,mufulira,-12.5498,28.2407,17.43,93,100,2.88,ZM,1697574319
221,nemuro,43.3236,145.575,10.66,75,62,9.7,JP,1697574319
222,crane,31.3974,-102.3501,26.45,21,0,7.33,US,1697574320
223,vila velha,-20.3297,-40.2925,26.97,81,0,7.2,BR,1697574320
224,tamanrasset,22.785,5.5228,23.95,17,0,1.54,DZ,1697574320
225,franceville,-1.6333,13.5836,22.36,97,100,1.37,GA,1697574320
226,north battleford,52.7834,-108.2847,14.05,58,100,7.2,CA,1697574321
227,wapato,46.4476,-120.4203,18.89,44,75,1.54,US,1697574321
228,garissa,-0.4536,39.6401,28.3,63,69,7.8,KE,1697574321
229,princeton,25.5384,-80.4089,25.57,50,0,4.63,US,1697574302
230,essaouira,31.5125,-9.77,22.72,94,40,1.54,MA,1697574322
231,rochester,43.1548,-77.6156,13.35,77,100,3.09,US,1697574322
232,new norfolk,-42.7826,147.0587,8.17,88,30,1.46,AU,1697574322
233,arraial do cabo,-22.9661,-42.0278,24.92,83,0,5.66,BR,1697574220
234,arkhangel'sk,64.5401,40.5433,3.96,78,100,4.06,RU,1697574323
235,pandan,14.0453,124.1694,26.46,87,61,4.71,PH,1697574323
236,kudymkar,59.0173,54.656,4.48,64,44,8.99,RU,1697574323
237,vorgashor,67.5833,63.95,1.47,92,100,3.15,RU,1697574323
238,khost,33.3395,69.9204,14.74,74,1,0.92,AF,1697574324
239,mirabad,30.4362,61.8383,24.08,20,9,1.76,AF,1697574324
240,hammerfest,70.6634,23.6821,-1.75,93,40,1.54,NO,1697574324
241,klyuchi,52.2667,79.1667,8.98,55,64,3.34,RU,1697574324
242,palikir - national government center,6.9248,158.1611,24.41,100,75,1.54,FM,1697574324
243,eyl,7.9803,49.8164,27.34,81,60,4.72,SO,1697574325
244,st. john's,47.5649,-52.7093,6.65,85,75,4.47,CA,1697574068
245,xichang,27.8964,102.2634,13.0,88,0,0.68,CN,1697574325
246,kuraymah,18.55,31.85,27.73,17,99,5.48,SD,1697574325
247,laguna,38.421,-121.4238,28.94,43,0,4.63,US,1697574325
248,sint michiel liber,12.15,-68.9833,31.9,70,20,5.66,CW,1697574326
249,conception bay south,47.4999,-52.9981,6.52,86,100,4.8,CA,1697574326
250,mecitozu,40.52,35.2953,8.27,84,96,1.79,TR,1697574326
251,ola,59.5833,151.2833,-1.99,60,0,5.91,RU,1697574326
252,woolgoolga,-30.1106,153.2007,16.13,70,81,6.34,AU,1697574327
253,forster,-32.1667,152.5167,15.16,80,95,3.02,AU,1697574327
254,ingenio la esperanza,-24.2255,-64.839,21.27,46,85,3.45,AR,1697574327
255,bikenibeu village,1.3673,173.1241,27.98,83,75,3.6,KI,1697574327
256,ulsteinvik,62.3432,5.8487,7.4,92,99,1.34,NO,1697574327
257,port lincoln,-34.7333,135.8667,13.58,84,0,4.14,AU,1697574328
258,mexico,15.0646,120.7198,25.84,89,23,1.76,PH,1697573928
259,khemisset,33.6667,-6.25,22.13,79,0,1.54,MA,1697574328
260,cascais,38.6979,-9.4215,20.28,95,86,5.81,PT,1697574328
261,valparaiso,-33.0393,-71.6273,18.13,63,0,5.66,CL,1697574118
262,fort st. john,56.2499,-120.8529,10.94,76,40,3.09,CA,1697574329
263,abepura,-2.6333,140.5833,25.45,83,75,1.54,ID,1697574329
264,san luis de la loma,17.2706,-100.8939,27.8,85,100,3.15,MX,1697574329
265,asadabad,34.7824,48.1185,7.97,45,0,1.65,IR,1697574330
266,ancud,-41.8697,-73.8203,14.48,65,2,1.6,CL,1697574330
267,bubaque,11.2833,-15.8333,27.85,77,48,2.55,GW,1697574330
268,balcarce,-37.8462,-58.2552,14.9,45,0,0.89,AR,1697574331
269,kimbe,-5.5502,150.1429,24.53,91,80,1.29,PG,1697574331
270,eureka,40.8021,-124.1637,22.04,95,44,1.34,US,1697574331
271,greymouth,-42.4667,171.2,8.87,84,40,2.53,NZ,1697574332
272,north bend,43.4065,-124.2243,21.25,82,40,3.6,US,1697574045
273,maqat,47.65,53.3167,8.97,61,28,3.68,KZ,1697574332
274,villa regina,-39.1,-67.0667,27.21,15,0,1.34,AR,1697574333
275,cartagena del chaira,1.3349,-74.8429,30.12,62,95,0.83,CO,1697574333
276,kristiansund,63.1115,7.732,6.36,87,75,3.09,NO,1697574333
277,pimentel,-6.8367,-79.9342,25.16,61,0,9.26,PE,1697574334
278,port hedland,-20.3167,118.5667,22.03,24,0,3.6,AU,1697574334
279,prineville,44.2999,-120.8345,21.12,45,0,2.57,US,1697574275
280,ar rahad,12.7167,30.65,28.42,52,61,1.72,SD,1697574334
281,mili,6.0815,171.735,28.23,71,39,1.65,MH,1697574335
282,smara,26.7384,-11.6719,30.2,25,11,5.54,EH,1697574335
283,broken hill,-31.95,141.4333,12.1,38,0,4.61,AU,1697574335
284,znamenskoye,57.1281,73.8282,10.56,89,24,2.49,RU,1697574336
285,smithers,54.7804,-127.1743,8.18,87,100,2.06,CA,1697574336
286,blagoveshchenka,52.8333,79.8667,9.03,65,32,3.44,RU,1697574336
287,al bayda',32.7627,21.7551,16.8,90,0,1.41,LY,1697574336
288,santiago del teide,28.294,-16.8162,20.18,86,60,1.28,ES,1697574336
289,crawfordsville,40.0411,-86.8745,17.13,44,40,3.6,US,1697574337
290,yekaterinoslavka,50.3734,129.1139,3.48,56,100,4.98,RU,1697574337
291,harstad,68.799,16.5293,1.56,92,32,4.92,NO,1697574337
292,fisterra,42.9049,-9.2629,20.01,96,100,10.96,ES,1697574337
293,kendari,-3.945,122.4989,23.24,91,25,1.18,ID,1697574338
294,sinop,41.7711,34.8709,9.21,90,100,2.4,TR,1697574338
295,saudarkrokur,65.7461,-19.6394,4.79,84,95,4.49,IS,1697574338
296,trebic,49.2149,15.8817,6.48,76,0,2.57,CZ,1697574338
297,poso,-1.3959,120.7524,24.79,82,13,1.88,ID,1697574338
298,pratt,37.6439,-98.7376,25.42,25,0,7.72,US,1697574262
299,goshainganj,26.5833,82.3833,20.9,75,1,2.82,IN,1697574339
300,bahia de kino,28.8333,-111.9333,40.51,29,25,2.91,MX,1697574234
301,trincomalee,8.5711,81.2335,26.26,82,100,0.95,LK,1697574339
302,lakatoro,-16.0999,167.4164,26.21,80,69,3.93,VU,1697574340
303,lingig,8.0389,126.4125,25.13,90,56,1.64,PH,1697574340
304,siocon,7.7061,122.1353,25.64,87,97,1.21,PH,1697574340
305,rongelap,11.1635,166.8941,28.02,76,77,5.29,MH,1697574340
306,zelenogorskiy,55.0333,87.0,5.58,88,100,2.36,RU,1697574341
307,bitkine,11.9801,18.2138,31.17,28,5,2.14,TD,1697574341
308,quelimane,-17.8786,36.8883,22.97,94,75,4.12,MZ,1697574341
309,lively,46.4334,-81.1498,12.51,61,0,1.41,CA,1697574341
310,codrington,-38.2667,141.9667,5.41,84,0,3.63,AU,1697574341
311,ape,57.5393,26.6929,5.95,98,100,1.59,LV,1697574342
312,aykhal,66.0,111.5,-11.07,93,96,4.92,RU,1697574342
313,plastun,44.7561,136.2939,6.72,63,70,4.02,RU,1697574342
314,gangtok,27.3333,88.6167,10.78,78,25,2.34,IN,1697574342
315,ujae,8.9322,165.7642,28.38,73,22,4.37,MH,1697574342
316,myeik,12.4333,98.6,25.11,88,97,1.35,MM,1697574343
317,port isabel,26.0734,-97.2086,27.05,34,0,3.6,US,1697574276
318,sheringham,52.9408,1.2093,11.53,69,91,10.63,GB,1697574343
319,retreat,38.8245,-85.8533,13.22,41,46,2.54,US,1697574343
320,fontanelas,38.8472,-9.4372,19.53,95,89,9.55,PT,1697574343
321,la ronge,55.1001,-105.2842,16.12,47,75,2.06,CA,1697574344
322,nema,57.5067,50.5011,3.54,82,100,11.0,RU,1697574344
323,lerdo de tejada,18.6167,-95.5167,25.69,69,100,7.57,MX,1697574344
324,palmer,42.1584,-72.3287,16.03,69,75,4.12,US,1697574286
325,balabac,7.9868,117.0645,27.68,82,76,3.83,PH,1697574344
326,cam ranh,11.9214,109.1591,24.98,94,40,0.0,VN,1697574345
327,keelung,25.1283,121.7419,26.16,82,100,5.07,TW,1697574228
328,la foa,-21.7108,165.8276,21.7,86,95,1.44,NC,1697574345
329,nadi,-17.8,177.4167,26.0,73,20,1.03,FJ,1697574345
330,miquelon,47.0975,-56.3814,8.0,59,100,3.86,PM,1697574345
331,juneau,58.3019,-134.4197,10.12,97,100,5.14,US,1697574346
332,xiuyan,40.2928,123.2744,11.29,94,100,0.76,CN,1697574346
333,buala,-8.145,159.5921,26.2,83,100,1.83,SB,1697574346
334,emerald,-23.5333,148.1667,19.63,73,54,5.65,AU,1697574346
335,bethalto,38.9092,-90.0407,21.08,52,0,2.06,US,1697574346
336,kupang,-10.1667,123.5833,26.32,78,11,3.6,ID,1697574347
337,lhasa,29.65,91.1,4.2,65,10,2.22,CN,1697574347
338,arawa,-6.2132,155.5367,25.24,81,100,2.25,PG,1697574347
339,peissenberg,47.8,11.0667,5.94,100,77,2.57,DE,1697574348
340,kismayo,-0.3582,42.5454,26.29,87,72,5.83,SO,1697574348
341,portland,45.5234,-122.6762,19.42,77,75,2.06,US,1697573796
342,comodoro rivadavia,-45.8667,-67.5,16.92,34,0,5.66,AR,1697574348
343,eirunepe,-6.6603,-69.8736,33.7,45,60,0.72,BR,1697574349
344,kirkagac,39.1064,27.6693,14.0,76,100,2.15,TR,1697574349
345,timbuktu,16.7735,-3.0074,35.94,19,81,2.75,ML,1697574349
346,igarka,67.4667,86.5833,0.18,89,100,6.31,RU,1697574349
347,cherlak,54.155,74.8055,9.79,75,10,2.59,RU,1697574349
348,shingu,33.7333,135.9833,15.09,74,0,2.45,JP,1697574350
349,vikulovo,56.8167,70.6107,8.78,79,5,3.85,RU,1697574350
350,selfoss,63.9331,-20.9971,9.47,96,100,9.78,IS,1697574350
351,bodo,67.28,14.405,2.1,86,0,4.63,NO,1697574350
352,luganville,-15.5333,167.1667,26.09,80,18,1.77,VU,1697574350
353,cafayate,-26.073,-65.9761,20.47,58,59,5.2,AR,1697574351
354,kapa'a,22.0752,-159.319,28.6,63,0,1.54,US,1697574351
355,cidreira,-30.1811,-50.2056,16.91,90,100,5.69,BR,1697574351
356,wenling,28.3669,121.36,17.36,81,0,1.09,CN,1697574351
357,kahta,37.7855,38.6237,18.65,35,6,0.77,TR,1697574351
358,kununurra,-15.7667,128.7333,17.99,82,0,1.54,AU,1697574352
359,mount gambier,-37.8333,140.7667,5.44,90,0,2.13,AU,1697574352
360,haiku-pauwela,20.9219,-156.3051,28.36,61,20,3.09,US,1697574352
361,lamu,-2.2717,40.902,27.12,88,100,4.8,KE,1697574352
362,ghadamis,30.1337,9.5007,27.34,15,55,4.06,LY,1697574352
363,yuzhno-kurilsk,44.0306,145.8556,10.76,75,89,13.08,RU,1697574353
364,el porvenir,13.7617,-87.3458,24.63,59,98,2.97,HN,1697574353
365,sal rei,16.1833,-22.9167,28.04,70,0,5.5,CV,1697574353
366,tucuma,-0.1833,-50.05,27.09,79,82,2.93,BR,1697574353
367,esmeraldas,-19.7625,-44.3139,32.48,27,29,2.81,BR,1697574354
368,villa gesell,-37.2639,-56.973,11.41,55,0,7.05,AR,1697574354
369,yarovoye,52.9273,78.58,9.9,76,22,3.08,RU,1697574354
370,las khorey,11.1595,48.1967,27.65,70,9,4.16,SO,1697574355
371,puerto baquerizo moreno,-0.9,-89.6,29.55,66,40,7.2,EC,1697574355
372,rawson,-43.3002,-65.1023,15.92,42,3,6.41,AR,1697574355
373,kalmunai,7.4167,81.8167,24.87,92,100,2.9,LK,1697574355
374,can giuoc,10.6167,106.6667,26.02,95,100,1.82,VN,1697574356
375,severnoye,56.3491,78.3619,8.32,91,5,2.68,RU,1697574356
376,grajau,-5.8194,-46.1386,37.98,17,30,3.19,BR,1697574357
377,vilyuchinsk,52.9306,158.4028,7.18,84,97,0.35,RU,1697574357
378,san antonio de pale,-1.4014,5.6325,25.52,78,36,2.2,GQ,1697574358
379,ponta delgada,37.7333,-25.6667,21.22,77,75,7.72,PT,1697574358
380,island harbour,50.724,-1.2758,13.34,79,100,7.15,GB,1697574358
381,khandyga,62.6667,135.6,-8.06,83,100,1.06,RU,1697574358
382,hualien city,23.9769,121.6044,23.41,82,80,1.56,TW,1697574359
383,muynoq,43.7683,59.0214,13.9,51,93,3.3,UZ,1697574359
384,tarawa,1.419,172.984,28.05,83,75,3.6,KI,1697574359
385,mount isa,-20.7333,139.5,21.87,20,0,4.12,AU,1697574359
386,newport,51.5877,-2.9984,12.35,75,100,8.8,GB,1697574359
387,mejit,10.2753,170.8646,27.62,80,57,4.89,MH,1697574360
388,horta,38.5333,-28.6333,21.12,91,75,8.49,PT,1697574360
389,tilcara,-23.5776,-65.3509,8.5,90,100,2.87,AR,1697574360
390,puerto madero,14.7208,-92.4215,30.11,100,75,2.06,MX,1697574360
391,carnarvon,-24.8667,113.6333,22.12,49,0,8.47,AU,1697574361
392,hasaki,35.7333,140.8333,13.22,63,99,3.71,JP,1697574361
393,mount pearl,47.5166,-52.7813,6.19,85,75,3.6,CA,1697574361
394,al kharijah,25.4514,30.5464,23.11,37,0,3.45,EG,1697574361
395,lityn,49.3251,28.0809,3.97,65,6,2.68,UA,1697574361
396,dunedin,-45.8742,170.5036,11.56,67,96,1.79,NZ,1697574362
397,sechura,-5.5569,-80.8222,26.43,60,42,6.76,PE,1697574362
398,korets,50.6165,27.1605,4.22,70,5,3.06,UA,1697574362
399,rio gallegos,-51.6226,-69.2181,15.03,36,0,10.8,AR,1697574362
400,paracuru,-3.41,-39.0306,27.28,69,100,6.29,BR,1697574363
401,kapuskasing,49.4169,-82.4331,12.05,58,0,3.6,CA,1697574363
402,susuman,62.7833,148.1667,-21.05,84,12,0.92,RU,1697574363
403,geraldton,-28.7667,114.6,17.23,82,100,4.12,AU,1697574364
404,philippeville,50.1957,4.5417,8.04,71,75,3.09,BE,1697574364
405,melfort,52.8667,-104.6177,9.07,87,100,5.66,CA,1697574364
406,roma,43.2128,-75.4557,14.95,69,100,3.09,US,1697574364
407,shahrud,36.4182,54.9763,13.12,69,2,3.38,IR,1697574365
408,la'ie,21.6477,-157.9253,29.47,74,0,1.34,US,1697574365
409,pacific grove,36.6177,-121.9166,27.44,73,0,4.47,US,1697574365
410,wenchang,30.904,118.4887,15.82,65,0,1.55,CN,1697574366
411,adolfo lopez mateos,28.4667,-107.3,24.0,25,39,1.64,MX,1697574366
412,guaruja,-23.9931,-46.2564,26.05,26,100,3.83,BR,1697574073
413,jatai,-17.8814,-51.7144,35.58,19,42,2.99,BR,1697574362
414,amble,55.3333,-1.5833,11.08,93,20,5.66,GB,1697574269
415,i-n-salah,27.1935,2.4607,29.29,15,60,2.64,DZ,1697574367
416,mamboma,8.0833,-11.6833,22.59,97,100,0.88,SL,1697574367
417,selma,36.5708,-119.6121,28.69,51,0,3.6,US,1697574294
418,kittila,67.6647,24.8936,-3.92,86,0,2.57,FI,1697574368
419,san fernando del valle de catamarca,-28.4696,-65.7852,20.43,59,86,3.58,AR,1697574368
420,motygino,58.1831,94.7592,1.55,91,31,1.79,RU,1697574080
421,penza,53.2007,45.0046,4.58,84,96,11.18,RU,1697574368
422,ishikawa,26.4233,127.8214,22.41,67,0,3.09,JP,1697574369
423,jwaneng,-24.6004,24.7303,20.6,30,0,3.31,BW,1697574369
424,masterton,-40.9597,175.6575,12.16,98,98,1.97,NZ,1697574369
425,atar,20.5169,-13.0499,33.23,17,20,1.49,MR,1697574370
426,ust-nera,64.5667,143.2,-20.5,95,84,1.58,RU,1697574370
427,uzgen,40.7699,73.3007,9.16,37,59,2.3,KG,1697574370
428,beyneu,45.3167,55.2,12.21,70,100,6.24,KZ,1697574370
429,kavaratti,10.5669,72.642,28.5,73,93,2.69,IN,1697574370
430,geoagiu,45.9167,23.2,6.51,63,99,0.34,RO,1697574371
431,buka,40.8108,69.1986,14.8,30,55,1.47,UZ,1697574371
432,novoshakhtinskiy,44.025,132.1514,8.47,44,100,2.53,RU,1697574371
433,el granada,37.5027,-122.4694,28.02,73,0,7.72,US,1697574182
434,saquarema,-22.92,-42.5103,25.02,85,100,4.0,BR,1697574368
435,lycksele,64.5954,18.6735,-0.87,93,100,0.0,SE,1697574372
436,pirenopolis,-15.8525,-48.9592,35.4,17,65,3.51,BR,1697574372
437,goz beida,13.95,20.55,31.51,15,22,4.34,TD,1697574373
438,gongchangling,41.1167,123.45,10.71,87,100,3.25,CN,1697574373
439,nantucket,41.2835,-70.0995,14.45,80,100,3.6,US,1697574373
440,teotitlan,18.1319,-97.0767,22.05,65,99,2.99,MX,1697574373
441,baharly,38.4362,57.4316,18.95,61,35,1.66,TM,1697574373
442,benguela,-12.5763,13.4055,23.03,81,79,1.17,AO,1697574374
443,kukawa,12.9234,13.5606,31.0,34,91,3.09,NG,1697574374
444,barbacoas,1.6715,-78.1398,28.49,81,99,2.18,CO,1697574374
445,mugia,43.1041,-9.2179,20.09,96,100,11.01,ES,1697574374
446,adam,22.3756,57.5233,26.68,46,14,2.85,OM,1697574375
447,uliastay,47.7417,96.8444,-2.08,44,48,0.31,MN,1697574375
448,colby,39.3958,-101.0524,29.9,21,0,4.92,US,1697574375
449,lautoka,-17.6167,177.4667,25.92,73,20,1.03,FJ,1697574375
450,homer,59.6425,-151.5483,9.87,94,100,0.0,US,1697574376
451,sigli,5.3848,95.9609,25.91,77,100,1.06,ID,1697574376
452,bandon,51.7469,-8.7425,11.77,94,100,8.24,IE,1697574376
453,funafuti,-8.5243,179.1942,30.0,89,75,5.14,TV,1697574377
454,champerico,14.3,-91.9167,28.3,75,100,2.28,GT,1697574377
455,miles city,46.4083,-105.8406,21.54,40,20,4.12,US,1697574377
456,ranong,9.9658,98.6348,24.12,97,100,2.36,TH,1697574377
457,sitka,57.0531,-135.33,12.94,54,100,8.75,US,1697574378
458,bernardo de irigoyen,-26.2552,-53.6458,16.01,95,97,3.94,AR,1697574378
459,belyy yar,53.6039,91.3903,7.94,81,75,2.0,RU,1697574378
460,christchurch,-43.5333,172.6333,11.41,86,68,3.09,NZ,1697574089
461,praia,14.9215,-23.5087,28.3,78,20,7.2,CV,1697574379
462,xingtai,37.0631,114.4942,16.92,74,100,3.47,CN,1697574379
463,beau vallon,-20.4189,57.6953,25.12,88,40,1.03,MU,1697574379
464,uvinza,-5.1036,30.3911,23.19,65,42,1.29,TZ,1697574379
465,puerto deseado,-47.7503,-65.8938,12.48,48,0,6.43,AR,1697574380
466,vanersborg,58.3807,12.3234,9.97,81,40,4.12,SE,1697574380
467,nar'yan-mar,67.6713,53.087,1.17,89,100,4.02,RU,1697574380
468,acapulco de juarez,16.8634,-99.8901,30.9,66,100,2.06,MX,1697574139
469,reggane,26.7158,0.1714,29.17,15,1,1.62,DZ,1697574381
470,guatire,10.4762,-66.5427,30.38,65,28,2.01,VE,1697574381
471,labrador city,52.9463,-66.9114,3.95,75,75,4.12,CA,1697574382
472,lastoursville,-0.8143,12.7287,22.98,98,100,0.65,GA,1697574382
473,piti village,13.4626,144.6933,25.95,91,0,3.09,GU,1697574382
474,tinajo,29.0788,-13.7081,24.49,83,20,1.03,ES,1697574383
475,zeya,53.75,127.2667,-1.4,91,100,1.33,RU,1697574383
476,larache,35.1932,-6.1557,21.83,90,0,4.2,MA,1697574383
477,mogok,22.9167,96.5,16.14,91,1,0.77,MM,1697574384
478,sandnessjoen,66.0217,12.6316,3.06,70,0,3.6,NO,1697574384
479,cururupu,-1.8283,-44.8683,28.57,64,76,3.02,BR,1697574384
480,safi,32.1667,-8.8333,19.59,95,29,3.99,MA,1697574385
481,kattivakkam,13.2167,80.3167,28.93,76,99,3.6,IN,1697574385
482,mana,5.6592,-53.7767,29.32,69,32,4.69,GF,1697574385
483,griffith,41.5284,-87.4237,17.81,58,20,1.54,US,1697574385
484,yigo village,13.5361,144.8886,25.08,88,0,3.09,GU,1697574386
485,iguatu,-6.3594,-39.2986,34.52,20,89,2.44,BR,1697574386
486,hotan,37.0997,79.9269,12.44,28,99,3.93,CN,1697574386
487,gorom-gorom,14.4439,-0.2361,35.52,20,97,2.43,BF,1697574386
488,hovd,48.0056,91.6419,3.07,34,12,0.24,MN,1697574387
489,neiafu,-18.65,-173.9833,25.38,78,40,4.63,TO,1697574387
490,kingston,17.997,-76.7936,32.53,69,20,5.14,JM,1697573901
491,aracati,-4.5617,-37.7697,26.7,70,93,6.48,BR,1697574387
492,kailua-kona,19.6406,-155.9956,29.04,72,20,4.63,US,1697574138
493,el nido,11.1858,119.3956,27.81,80,76,4.32,PH,1697574388
494,fort mcmurray,56.7268,-111.381,12.77,62,0,4.12,CA,1697574099
495,shimoda,34.6667,138.95,16.17,66,0,4.35,JP,1697574388
496,jardim,-21.4803,-56.1381,36.66,25,66,3.31,BR,1697574247
497,stephenville,32.2207,-98.2023,26.59,26,0,0.89,US,1697574389
498,kuusamo,65.9667,29.1833,-1.98,80,0,2.57,FI,1697574389
499,pariaman,-0.619,100.12,24.03,89,100,1.27,ID,1697574389
500,cedeira,43.6797,-8.0209,19.66,59,100,12.44,ES,1697574390
501,tidaholm,58.1804,13.9582,9.51,93,49,3.6,SE,1697574390
502,port blair,11.6667,92.75,26.02,89,75,0.51,IN,1697574390
503,idri,27.5,13.2667,25.61,15,0,2.71,LY,1697574390
504,antofagasta,-23.65,-70.4,18.6,65,56,3.07,CL,1697574364
505,kushiro,42.975,144.3747,9.41,79,16,5.18,JP,1697574269
506,vorkuta,67.5,64.0,1.79,92,100,3.31,RU,1697574391
507,ivdel',60.6911,60.4206,11.22,77,95,2.24,RU,1697574385
508,qui nhon,13.7667,109.2333,25.18,82,100,1.61,VN,1697574391
509,ghat,24.9647,10.1728,28.83,18,78,0.83,LY,1697574392
510,copala,16.65,-98.9833,28.74,67,100,2.89,MX,1697574392
511,guerrero negro,27.9769,-114.0611,25.4,55,5,6.8,MX,1697574392
512,hilo,19.7297,-155.09,27.85,73,75,2.57,US,1697574392
513,cidade velha,14.9167,-23.6167,28.26,78,20,7.2,CV,1697574393
514,cannonvale,-20.2833,148.7,23.66,83,100,8.64,AU,1697574393
515,sovetskiy,61.3614,63.5842,8.83,89,84,3.13,RU,1697574393
516,sovetskaya gavan',48.9723,140.2878,5.06,85,6,2.81,RU,1697574393
517,puerto cabezas,14.0351,-83.3888,28.98,79,40,4.12,NI,1697574394
518,qarauyl,48.9451,79.255,4.49,57,6,2.84,KZ,1697574394
519,kayangel,8.0823,134.7173,27.86,76,11,1.56,PW,1697574394
520,ongjin,37.9347,125.3619,13.4,62,100,1.27,KP,1697574394
521,zaozersk,69.4005,32.4476,-1.79,82,81,2.09,RU,1697574394
522,bodaybo,57.8506,114.1933,1.38,95,97,0.23,RU,1697574395
523,southeast arcadia,27.1863,-81.8521,23.93,59,0,1.79,US,1697574395
524,lewiston orchards,46.3804,-116.9754,18.73,47,0,0.0,US,1697574395
525,murun-kuren,49.6342,100.1625,2.42,47,100,5.4,MN,1697574395
526,tura,25.5198,90.2201,19.9,88,0,1.54,IN,1697574396
527,santa elena de uairen,4.6167,-61.1333,25.22,70,77,1.5,VE,1697574396
528,auki,-8.7676,160.7034,24.36,85,98,1.83,SB,1697574396
529,kiunga,-6.1219,141.2906,22.84,100,100,0.45,PG,1697574396
530,undurkhaan,47.3194,110.6556,2.41,41,77,4.46,MN,1697574396
531,vorotynets,56.0603,45.8633,2.95,85,100,8.64,RU,1697574397
532,ylitornio,66.3089,23.6773,-3.28,90,25,2.07,FI,1697574397
533,leh,34.1667,77.5833,2.71,62,98,1.55,IN,1697574397
534,puerto aysen,-45.4,-72.7,14.54,80,99,0.91,CL,1697574397
535,kem',64.9555,34.5793,3.36,74,97,7.44,RU,1697574398
536,pagar alam,-4.0167,103.2667,20.42,53,98,1.36,ID,1697574398
537,priob'ye,62.5206,65.5964,8.31,88,88,4.76,RU,1697574398
538,pupri,26.4833,85.7167,22.28,79,0,2.66,IN,1697574398
539,saldanha,-33.0117,17.9442,16.03,94,0,5.87,ZA,1697574398
